City_ID,City,Cloudiness,Country,Date,Humidity,Lat,Lng,Min Temp,Max Temp,Wind Speed
5882953,Aklavik,100,CA,2021-02-08 00:18:04,76,68.2191,-135.0107,-23.80000000000001,-22.0,76
3155487,Glomfjord,40,NO,2021-02-08 00:21:08,64,66.8167,13.9667,12.00200000000001,28.994000000000028,64
4032420,Neiafu,75,TO,2021-02-08 00:21:09,94,-18.65,-173.9833,76.99999999999994,76.99999999999994,94
3874787,Punta Arenas,90,CL,2021-02-08 00:21:10,34,-53.15,-70.9167,66.19999999999999,66.19999999999999,34
2088163,Popondetta,100,PG,2021-02-08 00:21:11,86,-8.7537,148.2534,80.07800000000003,80.07800000000003,86
3492997,Samaná,20,DO,2021-02-08 00:21:14,83,19.2056,-69.3369,78.80000000000001,78.80000000000001,83
4032243,Vaini,90,TO,2021-02-08 00:17:57,94,-21.2,-175.2,76.99999999999994,76.99999999999994,94
4030556,Rikitea,81,PF,2021-02-08 00:21:16,71,-23.1203,-134.9692,77.61200000000002,77.61200000000002,71
6089245,Norman Wells,20,CA,2021-02-08 00:21:17,75,65.282,-126.8329,-27.399999999999977,-27.399999999999977,75
4031574,Provideniya,74,RU,2021-02-08 00:21:19,83,64.3833,-173.3,-0.5440000000000396,-0.5440000000000396,83
3420846,Qaqortoq,75,GL,2021-02-08 00:21:20,28,60.7167,-46.0333,37.39999999999998,37.39999999999998,28
5924618,Cochrane,1,CA,2021-02-08 00:21:21,77,51.1834,-114.4687,-13.0,-9.994000000000028,77
3576994,Cockburn Town,20,TC,2021-02-08 00:21:22,83,21.4612,-71.1419,76.99999999999994,76.99999999999994,83
2123814,Leningradskiy,0,RU,2021-02-08 00:18:00,85,69.3833,178.4167,-14.710000000000036,-14.710000000000036,85
2013465,Verkhoyansk,17,RU,2021-02-08 00:21:25,81,67.5447,133.385,-32.78200000000004,-32.78200000000004,81
2208248,Kaitangata,93,NZ,2021-02-08 00:18:06,85,-46.2817,169.8464,64.99400000000009,64.99400000000009,85
3833367,Ushuaia,75,AR,2021-02-08 00:20:48,82,-54.8,-68.3,51.799999999999955,51.799999999999955,82
2138555,Poum,36,NC,2021-02-08 00:21:30,70,-20.2333,164.0167,80.52800000000008,80.52800000000008,70
1161724,Chabahar,0,IR,2021-02-08 00:21:31,61,25.2919,60.643,65.03000000000003,65.03000000000003,61
2092164,Lorengau,100,PG,2021-02-08 00:21:32,76,-2.0226,147.2712,83.87600000000003,83.87600000000003,76
2276492,Harper,81,LR,2021-02-08 00:21:34,89,4.375,-7.7169,79.30400000000003,79.30400000000003,89
1819729,Hong Kong,0,HK,2021-02-08 00:20:47,83,22.2855,114.1577,64.99400000000009,67.99999999999994,83
485351,Syamzha,8,RU,2021-02-08 00:21:36,86,60.0158,41.0614,-21.621999999999957,-21.621999999999957,86
5122534,Jamestown,90,US,2021-02-08 00:21:38,72,42.097,-79.2353,10.399999999999977,12.991999999999962,72
3454005,Piaçabuçu,79,BR,2021-02-08 00:21:39,79,-10.4056,-36.4344,79.10599999999994,79.10599999999994,79
3382160,Cayenne,90,GF,2021-02-08 00:21:40,83,4.9333,-52.3333,80.59999999999997,80.59999999999997,83
1058381,Morondava,100,MG,2021-02-08 00:21:41,81,-20.2833,44.2833,79.66400000000004,79.66400000000004,81
2028164,Deputatsky,52,RU,2021-02-08 00:21:43,85,69.3,139.9,-27.057999999999993,-27.057999999999993,85
2074865,Carnarvon,40,AU,2021-02-08 00:18:04,100,-24.8667,113.6333,80.59999999999997,80.59999999999997,100
2409914,Bonthe,31,SL,2021-02-08 00:21:45,84,7.5264,-12.505,79.16000000000003,79.16000000000003,84
198629,Eldoret,99,KE,2021-02-08 00:21:46,86,0.5204,35.2699,58.964,58.964,86
2184707,Wanaka,90,NZ,2021-02-08 00:21:48,44,-44.7,169.15,73.00399999999996,73.00399999999996,44
964432,Port Alfred,94,ZA,2021-02-08 00:21:49,95,-33.5906,26.891,64.99400000000009,64.99400000000009,95
2110227,Butaritari,90,KI,2021-02-08 00:21:50,80,3.0707,172.7902,81.05000000000001,81.05000000000001,80
686090,Asău,93,RO,2021-02-08 00:21:51,73,46.4333,26.4,30.00200000000001,30.00200000000001,73
6201424,Mataura,99,NZ,2021-02-08 00:21:53,42,-46.1927,168.8643,72.28399999999993,72.28399999999993,42
2094342,Kavieng,43,PG,2021-02-08 00:21:54,72,-2.5744,150.7967,84.77600000000001,84.77600000000001,72
2392087,Porto-Novo,40,BJ,2021-02-08 00:21:55,84,6.4965,2.6036,84.19999999999999,84.19999999999999,84
3361934,Saldanha,0,ZA,2021-02-08 00:21:56,72,-33.0117,17.9442,62.599999999999966,62.599999999999966,72
5282297,Bethel,20,US,2021-02-08 00:21:58,86,41.3712,-73.414,26.005999999999972,28.399999999999977,86
3386213,Touros,40,BR,2021-02-08 00:21:59,78,-5.1989,-35.4608,80.59999999999997,80.59999999999997,78
546105,Nikolskoye,90,RU,2021-02-08 00:22:00,86,59.7035,30.7861,10.994000000000028,17.599999999999966,86
2206939,Bluff,99,NZ,2021-02-08 00:22:01,65,-46.6,168.3333,62.599999999999966,62.599999999999966,65
6185377,Yellowknife,40,CA,2021-02-08 00:22:03,68,62.456,-114.3525,-32.80000000000001,-32.00799999999998,68
2122090,Pevek,0,RU,2021-02-08 00:19:46,83,69.7008,170.3133,-5.386000000000024,-5.386000000000024,83
5848280,Kapaa,1,US,2021-02-08 00:22:05,50,22.0752,-159.319,73.00399999999996,75.19999999999999,50
2075265,Busselton,81,AU,2021-02-08 00:22:06,99,-33.65,115.3333,62.99600000000004,64.99400000000009,99
3598787,Champerico,20,GT,2021-02-08 00:22:08,51,14.3,-91.9167,71.99600000000004,89.59999999999997,51
3155152,Gravdal,67,NO,2021-02-08 00:22:09,92,68.1214,13.5031,32.036,32.036,92
3369157,Cape Town,0,ZA,2021-02-08 00:20:56,72,-33.9258,18.4232,64.39999999999992,67.99999999999994,72
935215,Saint-Philippe,90,RE,2021-02-08 00:21:59,61,-21.3585,55.7679,73.00399999999996,80.59999999999997,61
2015306,Tiksi,45,RU,2021-02-08 00:21:58,86,71.6872,128.8694,-29.451999999999998,-29.451999999999998,86
3374210,São Filipe,100,CV,2021-02-08 00:22:14,75,14.8961,-24.4956,68.882,68.882,75
1635815,Maumere,100,ID,2021-02-08 00:22:15,74,-8.6199,122.2111,81.58999999999997,81.58999999999997,74
3864331,Bell Ville,0,AR,2021-02-08 00:22:16,34,-32.6259,-62.6887,76.91000000000003,76.91000000000003,34
3883457,Lebu,35,CL,2021-02-08 00:22:19,92,-37.6167,-73.65,59.25200000000001,59.25200000000001,92
986717,Kruisfontein,90,ZA,2021-02-08 00:17:26,89,-34.0033,24.7314,64.99400000000009,64.99400000000009,89
3467962,Cambuci,100,BR,2021-02-08 00:22:21,93,-21.5753,-41.9111,69.80000000000001,69.80000000000001,93
2025256,Chumikan,100,RU,2021-02-08 00:22:22,84,54.7183,135.315,-7.041999999999973,-7.041999999999973,84
3416888,Grindavik,0,IS,2021-02-08 00:22:24,69,63.8424,-22.4338,33.799999999999955,33.799999999999955,69
2155415,New Norfolk,67,AU,2021-02-08 00:21:53,68,-42.7826,147.0587,53.99600000000004,60.00799999999998,68
4020109,Atuona,24,PF,2021-02-08 00:17:56,74,-9.8,-139.0333,79.59199999999993,79.59199999999993,74
3424607,Tasiilaq,0,GL,2021-02-08 00:21:54,46,65.6145,-37.6368,26.599999999999966,26.599999999999966,46
6165406,Thompson,40,CA,2021-02-08 00:18:03,62,55.7435,-97.8558,-25.600000000000023,-25.600000000000023,62
882100,Rusape,73,ZW,2021-02-08 00:22:31,96,-18.5278,32.1284,61.79000000000002,61.79000000000002,96
2017155,Saskylakh,32,RU,2021-02-08 00:22:32,79,71.9167,114.0833,-36.94,-36.94,79
3366880,Hermanus,4,ZA,2021-02-08 00:22:33,90,-34.4187,19.2345,57.00200000000001,57.00200000000001,90
2447513,Arlit,100,NE,2021-02-08 00:20:34,18,18.7369,7.3853,69.54799999999994,69.54799999999994,18
3454061,Peruíbe,25,BR,2021-02-08 00:20:19,72,-24.32,-46.9983,72.33800000000002,72.33800000000002,72
3461941,Guaporé,0,BR,2021-02-08 00:18:50,81,-28.8456,-51.8903,66.9919999999999,71.99600000000004,81
964420,Port Elizabeth,0,ZA,2021-02-08 00:22:38,82,-33.918,25.5701,64.39999999999992,64.39999999999992,82
2126785,Belaya Gora,93,RU,2021-02-08 00:22:40,84,68.5333,146.4167,-25.384000000000015,-25.384000000000015,84
3444105,San Matías,49,BO,2021-02-08 00:22:41,53,-16.3667,-58.4,77.08999999999997,77.08999999999997,53
4035715,Avarua,20,CK,2021-02-08 00:18:22,74,-21.2078,-159.775,84.19999999999999,84.19999999999999,74
5855927,Hilo,20,US,2021-02-08 00:22:43,54,19.7297,-155.09,67.99999999999994,80.59999999999997,54
2070998,Geraldton,40,AU,2021-02-08 00:22:45,73,-28.7667,114.6,73.39999999999992,73.39999999999992,73
3931470,Puerto Maldonado,72,PE,2021-02-08 00:22:46,93,-12.6,-69.1833,76.85599999999994,76.85599999999994,93
5106841,Albany,99,US,2021-02-08 00:21:54,60,42.6001,-73.9662,26.005999999999972,28.00400000000002,60
5880054,Barrow,1,US,2021-02-08 00:18:08,68,71.2906,-156.7887,-25.600000000000023,-25.600000000000023,68
1688696,San Policarpo,100,PH,2021-02-08 00:22:50,86,12.1791,125.5072,79.64600000000002,79.64600000000002,86
3585968,El Salvador,9,SV,2021-02-08 00:22:51,69,13.8333,-88.9167,78.80000000000001,82.39999999999992,69
1735106,George Town,20,MY,2021-02-08 00:22:13,88,5.4112,100.3354,75.00200000000001,80.00600000000003,88
1254046,Tura,2,IN,2021-02-08 00:22:53,44,25.5198,90.2201,56.858000000000004,56.858000000000004,44
933995,Souillac,40,MU,2021-02-08 00:22:43,83,-20.5167,57.5167,78.80000000000001,78.80000000000001,83
7601762,Bairiki Village,20,KI,2021-02-08 00:22:56,79,1.3292,172.9752,84.19999999999999,84.19999999999999,79
2122104,Petropavlovsk-Kamchatskiy,90,RU,2021-02-08 00:22:57,93,53.0452,158.6483,24.799999999999955,24.799999999999955,93
1721842,Cabano,100,PH,2021-02-08 00:22:58,86,10.5869,122.7002,78.63799999999998,78.63799999999998,86
1527497,Kyzyl-Suu,100,KG,2021-02-08 00:23:00,80,42.3414,78.0056,34.394000000000005,34.394000000000005,80
2163355,Hobart,75,AU,2021-02-08 00:21:57,51,-42.8794,147.3294,58.99999999999994,62.599999999999966,51
4007503,El Sauzal de Rodríguez,0,MX,2021-02-08 00:23:03,86,31.9,-116.6833,57.00200000000001,57.00200000000001,86
2435708,Beïnamar,90,TD,2021-02-08 00:23:05,21,8.6698,15.3813,71.36599999999993,71.36599999999993,21
2418437,Kouroussa,82,GN,2021-02-08 00:23:06,22,10.65,-9.8833,75.56,75.56,22
5563839,Fortuna,1,US,2021-02-08 00:21:56,87,40.5982,-124.1573,48.19999999999993,53.00600000000003,87
3443061,Chui,34,UY,2021-02-08 00:22:28,75,-33.6971,-53.4616,66.56,66.56,75
551047,Kerchevskiy,100,RU,2021-02-08 00:23:10,86,59.946,56.2884,-20.72199999999998,-20.72199999999998,86
2522091,Alcúdia,20,ES,2021-02-08 00:23:11,87,39.8532,3.1214,40.99999999999994,44.99599999999998,87
315795,Elbistan,54,TR,2021-02-08 00:23:12,90,38.2059,37.1983,30.163999999999987,30.163999999999987,90
671145,Peretu,95,RO,2021-02-08 00:23:13,95,44.05,25.0833,37.00400000000002,37.00400000000002,95
1213855,Sibolga,100,ID,2021-02-08 00:23:16,77,1.7427,98.7792,76.01000000000005,76.01000000000005,77
3412093,Vestmannaeyjar,66,IS,2021-02-08 00:23:17,77,63.4427,-20.2734,38.40799999999996,38.40799999999996,77
932960,Werda,48,BW,2021-02-08 00:23:18,86,-25.2667,23.2833,68.43199999999996,68.43199999999996,86
2729907,Longyearbyen,0,SJ,2021-02-08 00:23:20,48,78.2186,15.6401,13.999999999999943,13.999999999999943,48
4364964,Parole,67,US,2021-02-08 00:23:21,68,38.9796,-76.5305,33.99799999999999,37.00400000000002,68
2071860,Esperance,40,AU,2021-02-08 00:23:23,60,-33.8667,121.9,73.39999999999992,73.39999999999992,60
3423146,Ilulissat,0,GL,2021-02-08 00:23:25,45,69.2167,-51.1,19.399999999999977,19.399999999999977,45
1263494,Mormugao,51,IN,2021-02-08 00:23:26,46,15.4,73.8,75.19999999999999,75.19999999999999,46
5563397,Eureka,35,US,2021-02-08 00:22:54,76,40.8021,-124.1637,51.00799999999998,53.99600000000004,76
6170031,Tuktoyaktuk,75,CA,2021-02-08 00:22:18,68,69.4541,-133.0374,-27.399999999999977,-27.399999999999977,68
2521582,Arona,75,ES,2021-02-08 00:23:30,77,28.0996,-16.681,53.99600000000004,62.00600000000003,77
3471451,Arraial do Cabo,100,BR,2021-02-08 00:23:32,82,-22.9661,-42.0278,75.03799999999995,75.03799999999995,82
2240449,Luanda,75,AO,2021-02-08 00:13:10,83,-8.8368,13.2343,78.80000000000001,78.80000000000001,83
2294915,Takoradze,61,GH,2021-02-08 00:23:36,86,4.8845,-1.7554,79.80799999999994,79.80799999999994,86
5354943,Half Moon Bay,1,US,2021-02-08 00:23:37,62,37.4636,-122.4286,55.00399999999996,64.39999999999992,62
3347353,Menongue,99,AO,2021-02-08 00:23:38,90,-14.6585,17.691,64.63399999999996,64.63399999999996,90
1267433,Kattivākkam,100,IN,2021-02-08 00:23:40,94,13.2167,80.3167,67.99999999999994,67.99999999999994,94
5294810,Flagstaff,1,US,2021-02-08 00:23:14,11,35.1981,-111.6513,48.99199999999996,53.99600000000004,11
5962442,Goderich,100,CA,2021-02-08 00:23:42,62,43.7501,-81.7165,12.199999999999932,12.199999999999932,62
6137462,Saint-Augustin,7,CA,2021-02-08 00:23:43,92,51.226,-58.6502,20.426000000000045,20.426000000000045,92
3421765,Nanortalik,90,GL,2021-02-08 00:23:45,87,60.1432,-45.2371,30.596000000000004,30.596000000000004,87
2303611,Esim,50,GH,2021-02-08 00:23:46,87,4.8699,-2.2405,79.80799999999994,79.80799999999994,87
5866583,Saint Paul Harbor,1,US,2021-02-08 00:23:47,51,57.79,-152.4072,35.599999999999966,35.599999999999966,51
3430443,Necochea,96,AR,2021-02-08 00:23:48,76,-38.5473,-58.7368,57.991999999999905,57.991999999999905,76
627907,Gomel,0,BY,2021-02-08 00:23:51,85,52.4345,30.9754,3.0020000000000095,3.199999999999932,85
5117949,Freeport,20,US,2021-02-08 00:20:19,86,40.6576,-73.5832,28.994000000000028,30.991999999999962,86
3899695,Ancud,0,CL,2021-02-08 00:23:53,73,-41.8697,-73.8203,63.55400000000003,63.55400000000003,73
3563504,Contramaestre,40,CU,2021-02-08 00:23:15,73,20.2978,-76.2414,78.80000000000001,78.80000000000001,73
1282256,Hithadhoo,37,MV,2021-02-08 00:23:56,71,-0.6,73.0833,81.608,81.608,71
3985710,Cabo San Lucas,40,MX,2021-02-08 00:19:25,60,22.8909,-109.9124,67.99999999999994,69.00799999999998,60
1235846,Matara,23,LK,2021-02-08 00:23:58,90,5.9485,80.5353,74.156,74.156,90
3430545,Morón,0,AR,2021-02-08 00:22:16,47,-34.6534,-58.6198,80.00600000000003,80.99600000000004,47
3418910,Upernavik,12,GL,2021-02-08 00:24:01,79,72.7868,-56.1549,18.283999999999935,18.283999999999935,79
934479,Grand Gaube,43,MU,2021-02-08 00:24:02,84,-20.0064,57.6608,76.99999999999994,76.99999999999994,84
1337619,Ugoofaaru,21,MV,2021-02-08 00:24:05,71,5.6667,73.0,81.41000000000003,81.41000000000003,71
780687,Berlevåg,100,NO,2021-02-08 00:24:06,92,70.8578,29.0864,24.00799999999998,24.00799999999998,92
4951594,Southbridge,98,US,2021-02-08 00:24:07,89,42.0751,-72.0334,24.99799999999999,28.994000000000028,89
3662342,São Gabriel da Cachoeira,92,BR,2021-02-08 00:24:08,95,-0.1303,-67.0892,75.90199999999999,75.90199999999999,95
3652764,Puerto Ayora,93,EC,2021-02-08 00:24:12,96,-0.7393,-90.3518,76.99999999999994,76.99999999999994,96
5990669,Kelvington,49,CA,2021-02-08 00:24:13,62,52.1667,-103.5343,-27.399999999999977,-27.399999999999977,62
3382867,Totness,97,SR,2021-02-08 00:24:15,86,5.8833,-56.3167,77.57600000000008,77.57600000000008,86
4031637,Lavrentiya,0,RU,2021-02-08 00:24:16,86,65.5833,-171.0,-7.960000000000036,-7.960000000000036,86
5797693,Hoquiam,90,US,2021-02-08 00:24:17,81,46.9809,-123.8893,42.799999999999955,42.99799999999999,81
5525042,Levelland,20,US,2021-02-08 00:24:18,10,33.5873,-102.378,69.80000000000001,69.80000000000001,10
2022572,Khatanga,0,RU,2021-02-08 00:24:19,79,71.9667,102.5,-28.75,-28.75,79
3430863,Mar del Plata,90,AR,2021-02-08 00:24:21,94,-38.0023,-57.5575,57.991999999999905,62.00600000000003,94
1270686,Gundlupēt,74,IN,2021-02-08 00:24:22,63,11.8,76.6833,60.06200000000007,60.06200000000007,63
3531368,Celestún,0,MX,2021-02-08 00:24:23,81,20.8667,-90.4,74.89400000000006,74.89400000000006,81
2615089,Præstø,100,DK,2021-02-08 00:24:25,74,55.1178,12.0573,26.99599999999998,30.00200000000001,74
477940,Ust-Tsilma,100,RU,2021-02-08 00:24:27,85,65.441,52.1498,-18.436000000000035,-18.436000000000035,85
934322,Mahébourg,40,MU,2021-02-08 00:21:53,83,-20.4081,57.7,78.80000000000001,78.80000000000001,83
2264923,Peniche,76,PT,2021-02-08 00:23:02,84,39.3558,-9.3811,53.99600000000004,55.994000000000085,84
5367788,Lompoc,1,US,2021-02-08 00:21:58,77,34.6391,-120.4579,55.39999999999992,60.99799999999999,77
2068110,Kununurra,75,AU,2021-02-08 00:24:32,89,-15.7667,128.7333,84.19999999999999,84.19999999999999,89
2016307,Solnechnyy,100,RU,2021-02-08 00:24:33,89,50.7214,136.6319,0.5359999999999445,0.5359999999999445,89
623549,Pinsk,100,BY,2021-02-08 00:24:34,92,52.1229,26.0951,11.353999999999985,11.353999999999985,92
3901547,Villamontes,8,BO,2021-02-08 00:24:36,47,-21.25,-63.5,77.08999999999997,77.08999999999997,47
1490256,Talnakh,17,RU,2021-02-08 00:24:37,75,69.4865,88.3972,-18.436000000000035,-18.436000000000035,75
4671240,Arlington,1,US,2021-02-08 00:24:06,41,32.7357,-97.1081,55.39999999999992,57.991999999999905,41
3695757,Lamas,40,PE,2021-02-08 00:24:39,65,-6.4167,-76.5333,84.19999999999999,84.19999999999999,65
2514651,Los Llanos de Aridane,40,ES,2021-02-08 00:22:37,77,28.6585,-17.9182,53.00600000000003,60.80000000000001,77
3831208,Qaanaaq,76,GL,2021-02-08 00:22:03,85,77.484,-69.3632,14.828000000000031,14.828000000000031,85
2192362,Christchurch,16,NZ,2021-02-08 00:23:17,29,-43.5333,172.6333,75.9919999999999,80.59999999999997,29
6096551,Pangnirtung,0,CA,2021-02-08 00:24:44,77,66.1451,-65.7125,26.97800000000001,26.97800000000001,77
3628473,San Cristobal,40,VE,2021-02-08 00:21:02,51,7.7669,-72.225,84.19999999999999,84.19999999999999,51
3939761,Hualmay,99,PE,2021-02-08 00:24:47,75,-11.0964,-77.6139,72.32,72.32,75
53654,Mogadishu,15,SO,2021-02-08 00:20:09,80,2.0371,45.3438,77.54000000000002,77.54000000000002,80
86049,Jalu,99,LY,2021-02-08 00:24:51,25,29.0331,21.5482,67.28000000000003,67.28000000000003,25
2239862,Malanje,100,AO,2021-02-08 00:24:52,98,-9.5402,16.341,65.26399999999995,65.26399999999995,98
3372707,Ribeira Grande,66,PT,2021-02-08 00:24:53,77,38.5167,-28.7,59.036,59.036,77
3512067,Baní,40,DO,2021-02-08 00:24:54,75,18.2833,-70.3333,80.00600000000003,80.00600000000003,75
876177,Luau,100,AO,2021-02-08 00:24:56,97,-10.7073,22.2247,66.36200000000002,66.36200000000002,97
1265830,Rairangpur,0,IN,2021-02-08 00:24:57,88,22.2676,86.1751,55.39999999999992,55.39999999999992,88
3435038,Dolores,60,AR,2021-02-08 00:24:58,70,-36.3132,-57.6792,66.54199999999997,66.54199999999997,70
110690,Faya,0,SA,2021-02-08 00:24:59,47,18.3851,42.4509,53.599999999999966,53.599999999999966,47
2027044,Batagay,35,RU,2021-02-08 00:25:01,83,67.6333,134.6333,-32.87199999999996,-32.87199999999996,83
6316343,Alta Floresta,100,BR,2021-02-08 00:25:02,97,-9.8756,-56.0861,70.53799999999995,70.53799999999995,97
2137773,Vao,90,NC,2021-02-08 00:25:03,80,-22.6667,167.4833,77.79199999999997,77.79199999999997,80
4021858,Guerrero Negro,0,MX,2021-02-08 00:25:05,31,27.9769,-114.0611,70.52000000000004,70.52000000000004,31
3357247,Gobabis,11,NA,2021-02-08 00:25:06,80,-22.45,18.9667,66.52399999999994,66.52399999999994,80
3579925,St. George's,20,GD,2021-02-08 00:24:25,78,12.0564,-61.7485,78.80000000000001,78.80000000000001,78
3450188,Santa Isabel,75,BR,2021-02-08 00:25:09,77,-23.3156,-46.2214,64.99400000000009,67.99999999999994,77
2144528,Warrnambool,100,AU,2021-02-08 00:25:10,76,-38.3833,142.4833,60.00799999999998,60.00799999999998,76
6301965,Howard Springs,75,AU,2021-02-08 00:25:11,78,-12.497,131.047,80.99600000000004,82.99400000000009,78
1106643,Quatre Cocos,40,MU,2021-02-08 00:25:12,83,-20.2078,57.7625,78.00799999999998,78.80000000000001,83
3466704,Castro,1,BR,2021-02-08 00:23:34,67,-24.7911,-50.0119,60.62000000000006,60.62000000000006,67
2630299,Hofn,100,IS,2021-02-08 00:25:16,86,64.2539,-15.2082,36.80599999999998,36.80599999999998,86
3465303,Costa Rica,0,BR,2021-02-08 00:25:05,76,-23.4167,-54.65,68.82800000000003,68.82800000000003,76
515879,Oktyabr'skiy,100,RU,2021-02-08 00:25:20,88,54.4815,53.471,-6.538000000000011,-6.538000000000011,88
3489577,Mandeville,20,JM,2021-02-08 00:25:21,73,18.0417,-77.5071,78.80000000000001,78.80000000000001,73
1492517,Shadrinsk,0,RU,2021-02-08 00:25:22,85,56.0852,63.6335,-10.029999999999973,-10.029999999999973,85
333795,Jijiga,16,ET,2021-02-08 00:25:24,84,9.35,42.8,56.91199999999998,56.91199999999998,84
6050066,La Ronge,63,CA,2021-02-08 00:23:22,56,55.1001,-105.2842,-31.0,-29.19999999999999,56
2112309,Katsuura,40,JP,2021-02-08 00:25:26,53,35.1333,140.3,39.99199999999996,46.39999999999998,53
2127202,Anadyr,100,RU,2021-02-08 00:25:27,52,64.75,177.4833,10.399999999999977,10.399999999999977,52
935214,Saint-Pierre,90,RE,2021-02-08 00:25:29,61,-21.3393,55.4781,73.00399999999996,80.59999999999997,61
3141667,Roald,0,NO,2021-02-08 00:25:30,46,62.5833,6.1333,13.999999999999943,24.799999999999955,46
3470164,Bela Vista de Goiás,75,BR,2021-02-08 00:25:32,88,-16.9728,-48.9533,71.59999999999997,71.59999999999997,88
2136825,Isangel,40,VU,2021-02-08 00:25:34,74,-19.55,169.2667,84.19999999999999,84.19999999999999,74
5044290,Saint Anthony,90,US,2021-02-08 00:25:35,46,45.0205,-93.218,-2.1999999999999886,-2.1999999999999886,46
2057087,Kupang,20,ID,2021-02-08 00:25:36,100,-10.1667,123.5833,80.59999999999997,80.59999999999997,100
5746545,Portland,75,US,2021-02-08 00:16:08,57,45.5234,-122.6762,44.00599999999997,48.19999999999993,57
609919,Quryq,49,KZ,2021-02-08 00:25:40,84,43.2,51.65,32.68399999999997,32.68399999999997,84
3932145,Pisco,75,PE,2021-02-08 00:25:42,83,-13.7,-76.2167,69.99799999999999,73.39999999999992,83
3691582,Talara,17,PE,2021-02-08 00:25:44,77,-4.5772,-81.2719,75.70400000000001,75.70400000000001,77
1510689,Baykit,100,RU,2021-02-08 00:25:46,94,61.67,96.37,27.589999999999975,27.589999999999975,94
2018735,Nyurba,100,RU,2021-02-08 00:25:47,92,63.2842,118.3319,-2.343999999999994,-2.343999999999994,92
1507390,Dikson,68,RU,2021-02-08 00:21:59,85,73.5069,80.5464,-32.09800000000001,-32.09800000000001,85
2338660,Yaan,96,NG,2021-02-08 00:25:51,18,7.3833,8.5667,77.08999999999997,77.08999999999997,18
4036284,Alofi,75,NU,2021-02-08 00:25:53,62,-19.0595,-169.9187,85.99999999999994,85.99999999999994,62
1701054,Marawi,100,PH,2021-02-08 00:22:07,95,7.9986,124.2928,75.00200000000001,75.00200000000001,95
4944903,Nantucket,90,US,2021-02-08 00:25:56,100,41.2835,-70.0995,33.00799999999998,33.799999999999955,100
463838,Zelenoborskiy,28,RU,2021-02-08 00:25:57,93,66.845,32.3622,12.991999999999962,13.999999999999943,93
2171099,Codrington,100,AU,2021-02-08 00:25:59,65,-38.2667,141.9667,59.81,59.81,65
1244926,Hambantota,0,LK,2021-02-08 00:26:00,100,6.1241,81.1185,73.39999999999992,73.39999999999992,100
3393471,Oriximiná,70,BR,2021-02-08 00:23:56,67,-1.7656,-55.8661,81.21200000000005,81.21200000000005,67
2109528,Buala,77,SB,2021-02-08 00:26:02,73,-8.145,159.5921,84.93800000000005,84.93800000000005,73
1106677,Bambous Virieux,40,MU,2021-02-08 00:26:04,83,-20.3428,57.7575,78.00799999999998,78.80000000000001,83
5847411,Kahului,20,US,2021-02-08 00:24:31,50,20.8947,-156.47,69.00799999999998,78.80000000000001,50
2126123,Chokurdakh,100,RU,2021-02-08 00:26:07,88,70.6333,147.9167,-17.698000000000036,-17.698000000000036,88
2121385,Severo-Kuril'sk,34,RU,2021-02-08 00:26:08,91,50.6789,156.125,23.28800000000001,23.28800000000001,91
3141310,Rørvik,0,NO,2021-02-08 00:26:10,94,64.8621,11.2373,23.557999999999936,23.557999999999936,94
1486321,Yar-Sale,100,RU,2021-02-08 00:26:11,90,66.8333,70.8333,-11.146000000000015,-11.146000000000015,90
5895424,Bay Roberts,8,CA,2021-02-08 00:23:38,71,47.5999,-53.2648,28.00400000000002,30.00200000000001,71
1242110,Kalmunai,28,LK,2021-02-08 00:26:15,87,7.4167,81.8167,76.56800000000004,76.56800000000004,87
2178753,Kirakira,14,SB,2021-02-08 00:26:16,69,-10.4544,161.9205,85.19,85.19,69
2374775,Bissau,78,GW,2021-02-08 00:26:17,68,11.8636,-15.5977,71.59999999999997,71.59999999999997,68
2431736,Goundi,54,TD,2021-02-08 00:26:19,21,9.3627,17.366,68.86399999999998,68.86399999999998,21
3375941,Skeldon,90,GY,2021-02-08 00:26:20,88,5.8833,-57.1333,76.04599999999999,76.04599999999999,88
2033449,Yantongshan,92,CN,2021-02-08 00:26:21,90,43.2919,126.0094,-4.846000000000004,-4.846000000000004,90
1529484,Kumul,81,CN,2021-02-08 00:26:22,80,42.8,93.45,28.50799999999998,28.50799999999998,80
1337610,Thinadhoo,24,MV,2021-02-08 00:22:16,74,0.5333,72.9333,81.49999999999994,81.49999999999994,74
6111862,Port Hardy,75,CA,2021-02-08 00:26:26,81,50.6996,-127.4199,37.39999999999998,39.19999999999993,81
2381972,Adrar,0,MR,2021-02-08 00:22:33,35,20.5022,-10.0711,57.81200000000007,57.81200000000007,35
3466165,Cidreira,0,BR,2021-02-08 00:26:29,71,-30.1811,-50.2056,70.82600000000008,70.82600000000008,71
4034551,Faanui,2,PF,2021-02-08 00:26:30,76,-16.4833,-151.75,81.536,81.536,76
1260206,Pāsighāt,0,IN,2021-02-08 00:26:31,45,28.0667,95.3333,56.4260000000001,56.4260000000001,45
2170581,Coolum Beach,89,AU,2021-02-08 00:26:32,76,-26.5333,153.1,71.99600000000004,80.00600000000003,76
893485,Chiredzi,93,ZW,2021-02-08 00:26:35,71,-21.05,31.6667,72.01399999999995,72.01399999999995,71
2305537,Agogo,36,GH,2021-02-08 00:26:36,89,6.8,-1.0819,75.43399999999991,75.43399999999991,89
1276621,Begamganj,0,IN,2021-02-08 00:22:10,45,23.6,78.3333,51.29599999999999,51.29599999999999,45
1264976,Leh,5,IN,2021-02-08 00:26:39,57,34.1667,77.5833,10.95799999999997,10.95799999999997,57
2126710,Beringovskiy,100,RU,2021-02-08 00:26:40,93,63.05,179.3167,4.963999999999999,4.963999999999999,93
5380437,Pacific Grove,1,US,2021-02-08 00:26:41,77,36.6177,-121.9166,53.00600000000003,60.00799999999998,77
1795632,Shenjiamen,100,CN,2021-02-08 00:26:42,80,29.9576,122.298,48.05599999999998,48.05599999999998,80
1082243,Ambilobe,50,MG,2021-02-08 00:26:44,93,-13.2,49.05,73.31,73.31,93
1513491,Yangi Marg`ilon,99,UZ,2021-02-08 00:26:45,75,40.4272,71.7189,40.99999999999994,40.99999999999994,75
4726521,San Patricio,75,US,2021-02-08 00:26:46,59,28.017,-97.5169,62.00600000000003,66.19999999999999,59
5257754,Janesville,75,US,2021-02-08 00:23:48,60,42.6828,-89.0187,-4.0,-2.1999999999999886,60
5919850,Chapais,90,CA,2021-02-08 00:26:24,85,49.7834,-74.8492,10.399999999999977,10.399999999999977,85
5265702,Onalaska,90,US,2021-02-08 00:17:40,50,43.8844,-91.2351,-0.39999999999997726,-0.39999999999997726,50
1633419,Padang,20,ID,2021-02-08 00:25:50,94,-0.9492,100.3543,73.39999999999992,73.39999999999992,94
3870243,Taltal,24,CL,2021-02-08 00:26:53,74,-25.4,-70.4833,65.24600000000004,65.24600000000004,74
6447156,Port-de-Bouc,0,FR,2021-02-08 00:26:55,93,43.4,4.9833,35.599999999999966,39.19999999999993,93
1015776,Bredasdorp,7,ZA,2021-02-08 00:26:56,77,-34.5322,20.0403,58.99999999999994,58.99999999999994,77
1267390,Kavaratti,40,IN,2021-02-08 00:22:45,69,10.5669,72.642,80.81599999999997,80.81599999999997,69
2629833,Husavik,90,IS,2021-02-08 00:26:58,74,66.0449,-17.3389,31.999999999999943,31.999999999999943,74
1067565,Beloha,15,MG,2021-02-08 00:22:09,96,-25.1667,45.05,74.4260000000001,74.4260000000001,96
535639,Letka,100,RU,2021-02-08 00:27:01,85,59.6011,49.4232,-22.701999999999998,-22.701999999999998,85
1687894,Santa Rosa,40,PH,2021-02-08 00:27:02,74,14.3122,121.1114,80.59999999999997,80.99600000000004,74
6065262,Maniwaki,91,CA,2021-02-08 00:27:04,62,46.3834,-75.966,13.999999999999943,13.999999999999943,62
3868633,Vallenar,0,CL,2021-02-08 00:22:34,56,-28.5708,-70.7581,65.74999999999994,65.74999999999994,56
2013918,Ust-Maya,99,RU,2021-02-08 00:27:06,83,60.4167,134.5333,-29.43399999999997,-29.43399999999997,83
777019,Vardø,100,NO,2021-02-08 00:27:07,92,70.3705,31.1107,24.494000000000028,24.494000000000028,92
2126199,Cherskiy,12,RU,2021-02-08 00:27:10,70,68.75,161.3,2.749999999999943,2.749999999999943,70
530972,Malmyzh,100,RU,2021-02-08 00:27:11,87,56.5205,50.6818,-13.575999999999965,-13.575999999999965,87
1006984,East London,95,ZA,2021-02-08 00:27:12,82,-33.0153,27.9116,71.45599999999996,71.45599999999996,82
692315,Sudak,100,UA,2021-02-08 00:27:14,85,44.85,34.9667,36.55400000000003,36.55400000000003,85
358048,Damietta,0,EG,2021-02-08 00:27:15,82,31.4165,31.8133,60.80000000000001,60.80000000000001,82
2181625,Te Anau,100,NZ,2021-02-08 00:27:16,58,-45.4167,167.7167,65.98399999999998,65.98399999999998,58
361058,Alexandria,0,EG,2021-02-08 00:22:39,88,31.2156,29.9553,57.19999999999999,57.19999999999999,88
2661712,Arosa,100,CH,2021-02-08 00:27:19,90,46.7779,9.6762,24.99799999999999,31.999999999999943,90
632669,Valkeala,90,FI,2021-02-08 00:27:20,86,60.9401,26.7979,15.799999999999955,15.799999999999955,86
5557293,Sitka,40,US,2021-02-08 00:27:21,30,57.0531,-135.33,35.599999999999966,35.599999999999966,30
3520994,Puerto Escondido,20,MX,2021-02-08 00:27:22,69,15.85,-97.0667,82.39999999999992,82.39999999999992,69
355449,Esna,0,EG,2021-02-08 00:27:24,67,25.2934,32.554,60.80000000000001,60.80000000000001,67
934649,Cap Malheureux,45,MU,2021-02-08 00:27:12,84,-19.9842,57.6142,78.00799999999998,78.00799999999998,84
743881,Kastamonu Province,100,TR,2021-02-08 00:27:26,62,41.5,33.6667,43.879999999999995,43.879999999999995,62
6125862,Roblin,46,CA,2021-02-08 00:27:27,82,51.23,-101.3565,-34.762,-34.762,82
6457397,Bose,95,IT,2021-02-08 00:27:29,98,45.4612,8.0137,39.00200000000001,42.00799999999998,98
5861897,Fairbanks,20,US,2021-02-08 00:27:30,70,64.8378,-147.7164,-11.00200000000001,-2.9920000000000186,70
4946620,Palmer,90,US,2021-02-08 00:27:31,86,42.1584,-72.3287,24.99799999999999,26.99599999999998,86
148251,Julfa,20,AZ,2021-02-08 00:27:32,86,38.9558,45.6308,30.199999999999932,30.199999999999932,86
257126,Methana,96,GR,2021-02-08 00:27:34,74,37.5823,23.3914,60.99799999999999,62.00600000000003,74
532600,Lyubim,4,RU,2021-02-08 00:27:35,87,58.3625,40.6843,-18.687999999999988,-18.687999999999988,87
962367,Richards Bay,93,ZA,2021-02-08 00:27:36,93,-28.783,32.0377,74.87600000000003,74.87600000000003,93
6354897,Rivière-du-Loup,100,CA,2021-02-08 00:27:38,86,47.8304,-69.5342,21.199999999999932,26.599999999999966,86
543018,Koz'modem'yansk,40,RU,2021-02-08 00:27:39,70,56.3367,46.5711,-11.199999999999989,-11.199999999999989,70
5110365,Broome,1,US,2021-02-08 00:24:22,73,42.2506,-75.833,15.007999999999981,19.994000000000028,73
5836898,Rock Springs,1,US,2021-02-08 00:23:25,32,41.5875,-109.2029,33.799999999999955,33.799999999999955,32
286621,Salalah,75,OM,2021-02-08 00:27:17,73,17.0151,54.0924,69.80000000000001,69.80000000000001,73
3466980,Caravelas,100,BR,2021-02-08 00:27:44,91,-17.7125,-39.2481,75.9919999999999,75.9919999999999,91
897456,Sinazongwe,100,ZM,2021-02-08 00:27:45,85,-17.2614,27.4618,74.858,74.858,85
3893726,Constitución,2,CL,2021-02-08 00:26:26,87,-35.3333,-72.4167,59.12600000000003,59.12600000000003,87
4969398,Lewiston,90,US,2021-02-08 00:27:16,93,44.1003,-70.2148,21.991999999999962,24.99799999999999,93
1852357,Shimoda,20,JP,2021-02-08 00:27:35,58,34.6667,138.95,49.99999999999994,51.799999999999955,58
2027042,Batagay-Alyta,0,RU,2021-02-08 00:25:59,77,67.8006,130.4114,-31.161999999999978,-31.161999999999978,77
5554428,Ketchikan,1,US,2021-02-08 00:24:56,64,55.3422,-131.6461,28.399999999999977,31.999999999999943,64
3838859,Río Gallegos,0,AR,2021-02-08 00:26:24,48,-51.6226,-69.2181,62.599999999999966,62.599999999999966,48
6113406,Prince Rupert,1,CA,2021-02-08 00:27:54,51,54.3161,-130.3201,31.999999999999943,33.799999999999955,51
3157897,Fagernes,0,NO,2021-02-08 00:27:55,80,60.9858,9.2324,-5.007999999999981,-5.007999999999981,80
4014409,Cherán,1,MX,2021-02-08 00:27:58,49,19.6833,-101.95,66.9919999999999,73.39999999999992,49
964090,Prieska,2,ZA,2021-02-08 00:27:59,39,-29.6641,22.7474,77.46800000000002,77.46800000000002,39
2156643,Mount Gambier,90,AU,2021-02-08 00:26:18,59,-37.8333,140.7667,62.599999999999966,62.599999999999966,59
2090021,Namatanai,96,PG,2021-02-08 00:28:03,68,-3.6667,152.4333,85.19,85.19,68
5905393,Bonavista,0,CA,2021-02-08 00:28:04,74,48.6499,-53.1147,24.799999999999955,30.00200000000001,74
3571913,Marsh Harbour,54,BS,2021-02-08 00:28:05,88,26.5412,-77.0636,75.52399999999994,75.52399999999994,88
2455216,Kita,70,ML,2021-02-08 00:28:06,20,13.0349,-9.4895,73.52600000000001,73.52600000000001,20
1651810,Airai,100,TL,2021-02-08 00:28:08,97,-8.9266,125.4092,66.88399999999996,66.88399999999996,97
2015179,Tommot,0,RU,2021-02-08 00:28:09,79,58.9564,126.2925,-24.682000000000016,-24.682000000000016,79
286245,Sur,0,OM,2021-02-08 00:28:10,72,22.5667,59.5289,63.35599999999994,63.35599999999994,72
2014624,Udachny,92,RU,2021-02-08 00:24:10,83,66.4167,112.4,-27.47199999999998,-27.47199999999998,83
3390295,Rio Formoso,40,BR,2021-02-08 00:28:13,69,-8.6636,-35.1586,80.59999999999997,80.59999999999997,69
5955902,Fort Nelson,75,CA,2021-02-08 00:24:34,64,58.8053,-122.7002,-14.800000000000011,-14.800000000000011,64
5150986,Conneaut,90,US,2021-02-08 00:28:15,62,41.9476,-80.5542,13.999999999999943,15.799999999999955,62
3835869,Santiago del Estero,0,AR,2021-02-08 00:28:16,50,-27.7951,-64.2615,82.99400000000009,82.99400000000009,50
2961459,Skibbereen,90,IE,2021-02-08 00:28:17,69,51.55,-9.2667,35.599999999999966,35.599999999999966,69
2446796,Bilma,99,NE,2021-02-08 00:28:20,23,18.6853,12.9164,64.94,64.94,23
5546220,Saint George,1,US,2021-02-08 00:28:21,14,37.1041,-113.5841,62.599999999999966,62.599999999999966,14
5423092,Glenwood Springs,1,US,2021-02-08 00:28:22,49,39.5505,-107.3248,21.199999999999932,48.19999999999993,49
3374462,Mindelo,75,CV,2021-02-08 00:28:24,56,16.8901,-24.9804,69.80000000000001,69.80000000000001,56
553766,Kamenka,8,RU,2021-02-08 00:28:25,91,51.3223,42.7678,-8.194000000000017,-8.194000000000017,91
1723481,Buenavista,100,PH,2021-02-08 00:28:26,95,8.9769,125.4089,73.868,73.868,95
1737185,Kapit,95,MY,2021-02-08 00:28:28,94,2.0167,112.9333,74.76800000000009,74.76800000000009,94
1634614,Nabire,76,ID,2021-02-08 00:28:29,64,-3.3667,135.4833,84.90199999999999,84.90199999999999,64
3395981,Maceió,0,BR,2021-02-08 00:27:25,88,-9.6658,-35.7353,76.99999999999994,76.99999999999994,88
5870133,Nome,1,US,2021-02-08 00:28:31,84,64.5011,-165.4064,-4.0,1.004000000000019,84
2783050,Abtenau,75,AT,2021-02-08 00:28:33,93,47.5637,13.346,24.99799999999999,37.39999999999998,93
2636638,Stromness,100,GB,2021-02-08 00:28:34,59,58.965,-3.296,31.999999999999943,31.999999999999943,59
4004293,Ixtapa,1,MX,2021-02-08 00:28:35,73,20.7,-105.2,71.99600000000004,73.39999999999992,73
3385670,Urucará,98,BR,2021-02-08 00:28:36,85,-2.5364,-57.76,78.11599999999993,78.11599999999993,85
1174451,Keti Bandar,0,PK,2021-02-08 00:28:38,47,24.1447,67.4497,66.18199999999996,66.18199999999996,47
866241,Myskhako,100,RU,2021-02-08 00:28:40,80,44.6714,37.7433,30.00200000000001,30.199999999999932,80
6613142,Vincennes,90,FR,2021-02-08 00:28:41,80,48.85,2.4333,30.00200000000001,33.00799999999998,80
6067747,Matagami,90,CA,2021-02-08 00:28:43,71,49.7502,-77.6328,1.3999999999999773,1.3999999999999773,71
1174062,Kharan,11,PK,2021-02-08 00:28:44,35,28.5833,65.4167,51.656000000000006,51.656000000000006,35
5142109,Valley Stream,75,US,2021-02-08 00:28:45,93,40.6643,-73.7085,28.00400000000002,33.00799999999998,93
5062292,Valley City,75,US,2021-02-08 00:28:46,77,46.9233,-98.0032,-11.199999999999989,-11.199999999999989,77
2610806,Vágur,95,FO,2021-02-08 00:28:47,77,61.4732,-6.8119,37.54400000000004,37.54400000000004,77
1862505,Hirara,40,JP,2021-02-08 00:22:09,68,24.8,125.2833,69.80000000000001,69.80000000000001,68
3372783,Ponta Delgada,40,PT,2021-02-08 00:28:50,82,37.7333,-25.6667,55.39999999999992,57.00200000000001,82
337771,Fichē,18,ET,2021-02-08 00:28:51,80,9.8,38.7333,48.63199999999995,48.63199999999995,80
6355222,Yulara,14,AU,2021-02-08 00:25:46,21,-25.2406,130.9889,85.99999999999994,85.99999999999994,21
53157,Qandala,2,SO,2021-02-08 00:28:54,73,11.472,49.8728,73.88600000000002,73.88600000000002,73
1052373,Beira,75,MZ,2021-02-08 00:28:55,94,-19.8436,34.8389,80.00600000000003,80.59999999999997,94
3839307,Rawson,7,AR,2021-02-08 00:28:56,59,-43.3002,-65.1023,59.12600000000003,59.12600000000003,59
2264557,Ponta do Sol,42,PT,2021-02-08 00:28:58,74,32.6667,-17.1,46.00400000000002,57.991999999999905,74
2291666,Biankouma,49,CI,2021-02-08 00:28:24,64,7.7391,-7.6138,75.84800000000001,75.84800000000001,64
4333811,Morgan City,1,US,2021-02-08 00:29:00,71,29.6994,-91.2068,53.00600000000003,55.39999999999992,71
203717,Yangambi,99,CD,2021-02-08 00:29:01,51,0.8102,24.4336,67.28000000000003,67.28000000000003,51
5847486,Kailua,40,US,2021-02-08 00:29:03,50,21.4022,-157.7394,75.00200000000001,78.80000000000001,50
3449502,Santo Antônio do Leverger,0,BR,2021-02-08 00:29:04,51,-15.8656,-56.0767,84.19999999999999,84.19999999999999,51
3587091,Chalatenango,20,SV,2021-02-08 00:29:05,65,14.0333,-88.9333,78.80000000000001,80.59999999999997,65
2982343,Royan,90,FR,2021-02-08 00:29:06,93,45.6285,-1.0281,39.19999999999993,40.99999999999994,93
5392126,San Joaquin,1,US,2021-02-08 00:29:08,52,37.9333,-121.3011,62.00600000000003,66.9919999999999,52
1529660,Aksu,78,CN,2021-02-08 00:29:09,89,41.1231,80.2644,25.93399999999997,25.93399999999997,89
3440777,Rocha,11,UY,2021-02-08 00:24:53,90,-34.4833,-54.3333,62.31200000000007,62.31200000000007,90
1714733,Dingle,100,PH,2021-02-08 00:29:13,91,10.9995,122.6711,76.53199999999998,76.53199999999998,91
3545841,Nuevitas,75,CU,2021-02-08 00:29:14,94,21.5453,-77.2644,71.59999999999997,71.59999999999997,94
2030065,Mandalgovi,0,MN,2021-02-08 00:29:15,83,45.7625,106.2708,12.110000000000014,12.110000000000014,83
3380290,Sinnamary,100,GF,2021-02-08 00:29:16,83,5.3833,-52.95,78.02600000000001,78.02600000000001,83
2191911,Dargaville,44,NZ,2021-02-08 00:29:18,49,-35.9333,173.8833,74.858,74.858,49
57000,Hobyo,1,SO,2021-02-08 00:29:19,82,5.3505,48.5268,77.07199999999995,77.07199999999995,82
2019718,Mukhen,98,RU,2021-02-08 00:29:20,87,48.1,136.1,-7.024000000000001,-7.024000000000001,87
2077895,Alice Springs,0,AU,2021-02-08 00:27:24,21,-23.7,133.8833,85.99999999999994,85.99999999999994,21
1806445,Ji’an,100,CN,2021-02-08 00:29:23,74,27.1172,114.9793,55.688000000000045,55.688000000000045,74
10722858,Forsytheganj,89,BY,2021-02-08 00:29:24,93,52.6333,29.7333,4.3700000000000045,4.3700000000000045,93
172515,Abu Samrah,3,SY,2021-02-08 00:29:25,89,35.3029,37.1841,49.81999999999999,49.81999999999999,89
1337607,Kudahuvadhoo,29,MV,2021-02-08 00:28:14,71,2.6708,72.8944,81.30200000000008,81.30200000000008,71
3449711,Santo Amaro da Imperatriz,40,BR,2021-02-08 00:29:28,73,-27.6881,-48.7786,62.00600000000003,75.19999999999999,73
2125945,Dolinsk,20,RU,2021-02-08 00:29:29,84,47.35,142.8,-2.1999999999999886,-2.1999999999999886,84
1684019,Talavera,40,PH,2021-02-08 00:29:30,73,15.6167,120.9333,76.99999999999994,76.99999999999994,73
3374120,Vila do Maio,75,CV,2021-02-08 00:29:32,68,15.1333,-23.2167,67.99999999999994,67.99999999999994,68
1635283,Metro,86,ID,2021-02-08 00:29:33,93,-5.1131,105.3067,74.55200000000008,74.55200000000008,93
2621230,Grenå,75,DK,2021-02-08 00:29:34,74,56.4158,10.8783,24.00799999999998,28.399999999999977,74
6144312,Sept-Îles,49,CA,2021-02-08 00:29:37,73,50.2001,-66.3821,8.599999999999966,17.599999999999966,73
2079582,Alyangula,90,AU,2021-02-08 00:29:38,83,-13.8483,136.4192,82.39999999999992,82.39999999999992,83
3175096,Laas,90,IT,2021-02-08 00:29:39,86,46.6166,10.7002,30.199999999999932,39.00200000000001,86
3860259,Córdoba,0,AR,2021-02-08 00:29:40,78,-31.4135,-64.1811,73.39999999999992,80.00600000000003,78
8079926,Labuhan,100,ID,2021-02-08 00:29:42,87,-6.8844,112.2051,77.64799999999997,77.64799999999997,87
1501000,Kyshtovka,100,RU,2021-02-08 00:29:44,93,56.555,76.6271,7.465999999999951,7.465999999999951,93
1788852,Xining,31,CN,2021-02-08 00:29:45,55,36.6167,101.7667,20.80400000000003,20.80400000000003,55
1264115,Malegaon,2,IN,2021-02-08 00:29:47,30,20.55,74.5333,61.807999999999936,61.807999999999936,30
1813828,Danjiangkou,100,CN,2021-02-08 00:29:48,64,32.5428,111.5086,41.01800000000003,41.01800000000003,64
2036055,Lishu,0,CN,2021-02-08 00:29:49,88,43.3047,124.3278,-4.575999999999965,-4.575999999999965,88
1078553,Ampanihy,10,MG,2021-02-08 00:29:50,94,-24.7,44.75,74.37200000000001,74.37200000000001,94
6620339,Karratha,5,AU,2021-02-08 00:29:52,62,-20.7377,116.8463,80.20400000000001,80.20400000000001,62
1488414,Urengoy,100,RU,2021-02-08 00:29:53,94,65.9667,78.3667,5.6299999999999955,5.6299999999999955,94
2122262,Palana,30,RU,2021-02-08 00:28:22,91,59.1167,159.9667,16.826000000000022,16.826000000000022,91
1637001,Biak,100,ID,2021-02-08 00:29:55,74,-0.9131,122.8766,80.23999999999995,80.23999999999995,74
1807687,Huaicheng,1,CN,2021-02-08 00:29:57,62,23.9051,112.1931,63.35599999999994,63.35599999999994,62
1786538,Yining,100,CN,2021-02-08 00:29:58,87,29.0361,114.5636,50.68399999999997,50.68399999999997,87
1521315,Līsakovsk,63,KZ,2021-02-08 00:29:59,89,52.5369,62.4936,-2.05600000000004,-2.05600000000004,89
3662489,Santa Isabel Rio Negro,99,BR,2021-02-08 00:30:00,83,-0.4139,-65.0192,78.584,78.584,83
2269594,Cascais,16,PT,2021-02-08 00:30:02,94,38.6979,-9.4215,53.99600000000004,55.00399999999996,94
1529376,Korla,100,CN,2021-02-08 00:30:03,79,41.7597,86.1469,31.226000000000056,31.226000000000056,79
2374583,Bubaque,0,GW,2021-02-08 00:30:04,67,11.2833,-15.8333,78.85399999999998,78.85399999999998,67
3893629,Coquimbo,0,CL,2021-02-08 00:27:15,72,-29.9533,-71.3436,62.599999999999966,62.599999999999966,72
6167817,Torbay,20,CA,2021-02-08 00:30:07,69,47.6666,-52.7314,28.00400000000002,30.00200000000001,69
3115824,Muros,1,ES,2021-02-08 00:30:08,85,42.7762,-9.0603,51.99799999999999,53.99600000000004,85
2980080,Saint-François,90,FR,2021-02-08 00:30:10,87,46.4154,3.9054,37.39999999999998,37.99400000000003,87
2139521,Noumea,0,NC,2021-02-08 00:27:48,62,-22.2763,166.4572,84.00200000000001,85.99999999999994,62
1626493,Srandakan,100,ID,2021-02-08 00:30:14,78,-7.9386,110.2506,80.94199999999995,80.94199999999995,78
3134327,Tonstad,0,NO,2021-02-08 00:30:15,67,58.6626,6.7169,17.005999999999972,22.999999999999943,67
1328121,Bogale,68,MM,2021-02-08 00:28:22,63,16.2833,95.4,71.02399999999994,71.02399999999994,63
5983720,Iqaluit,90,CA,2021-02-08 00:25:40,74,63.7506,-68.5145,30.00200000000001,30.199999999999932,74
542024,Krasnoye-na-Volge,0,RU,2021-02-08 00:30:19,77,57.5125,41.2419,-9.399999999999977,-9.399999999999977,77
1734705,Kuala Terengganu,40,MY,2021-02-08 00:30:20,94,5.3302,103.1408,76.99999999999994,78.00799999999998,94
1254709,Tezu,0,IN,2021-02-08 00:30:21,34,27.9167,96.1667,59.071999999999946,59.071999999999946,34
2173911,Broken Hill,0,AU,2021-02-08 00:28:04,37,-31.95,141.4333,71.59999999999997,71.59999999999997,37
2294877,Tamale,1,GH,2021-02-08 00:30:24,16,9.4008,-0.8393,83.53399999999993,83.53399999999993,16
2288105,Grand-Lahou,100,CI,2021-02-08 00:30:25,89,5.1367,-5.0242,79.26800000000009,79.26800000000009,89
2194098,Ahipara,46,NZ,2021-02-08 00:30:26,58,-35.1667,173.1667,72.78799999999995,72.78799999999995,58
2125906,Dukat,100,RU,2021-02-08 00:30:28,85,62.55,155.55,5.989999999999952,5.989999999999952,85
3452711,Porto Nacional,40,BR,2021-02-08 00:30:29,88,-10.7081,-48.4172,75.19999999999999,75.19999999999999,88
5850554,Makakilo City,20,US,2021-02-08 00:30:30,44,21.3469,-158.0858,73.39999999999992,78.80000000000001,44
2361082,Dori,0,BF,2021-02-08 00:30:31,20,14.0354,-0.0345,74.55200000000008,74.55200000000008,20
2125693,Evensk,100,RU,2021-02-08 00:30:33,93,61.95,159.2333,13.279999999999973,13.279999999999973,93
3374333,Praia,75,CV,2021-02-08 00:30:34,68,14.9215,-23.5087,67.99999999999994,67.99999999999994,68
3137469,Sørland,93,NO,2021-02-08 00:30:35,85,67.667,12.6934,34.214,34.214,85
1253392,Varkala,20,IN,2021-02-08 00:30:37,78,8.7341,76.7067,78.80000000000001,78.80000000000001,78
609906,Fort-Shevchenko,100,KZ,2021-02-08 00:30:38,86,44.5086,50.263,28.615999999999985,28.615999999999985,86
3437056,San Lorenzo,0,PY,2021-02-08 00:30:39,78,-25.3333,-57.5333,71.59999999999997,71.59999999999997,78
601551,Akdepe,0,TM,2021-02-08 00:30:40,87,42.0551,59.3788,39.19999999999993,40.99999999999994,87
6324729,Halifax,100,CA,2021-02-08 00:29:40,93,44.6453,-63.5724,26.005999999999972,28.399999999999977,93
2047258,Novyy Urgal,100,RU,2021-02-08 00:30:43,86,51.0736,132.5642,-11.956000000000017,-11.956000000000017,86
3451138,Rio Grande,0,BR,2021-02-08 00:30:44,74,-32.035,-52.0986,69.99799999999999,69.99799999999999,74
1048364,Chokwé,98,MZ,2021-02-08 00:30:45,90,-24.5333,32.9833,73.07600000000008,73.07600000000008,90
1608033,Pak Phanang,20,TH,2021-02-08 00:30:47,100,8.3511,100.202,75.19999999999999,75.19999999999999,100
535839,Leshukonskoye,98,RU,2021-02-08 00:30:48,86,64.8989,45.7622,-22.918000000000006,-22.918000000000006,86
2189343,Kaeo,78,NZ,2021-02-08 00:30:49,63,-35.1,173.7833,70.95200000000006,70.95200000000006,63
3712636,Cerro Punta,20,PA,2021-02-08 00:30:52,62,8.85,-82.5667,87.80000000000001,87.80000000000001,62
493463,Shumerlya,55,RU,2021-02-08 00:30:53,87,55.5005,46.4129,-16.960000000000036,-16.960000000000036,87
6148373,Sioux Lookout,1,CA,2021-02-08 00:27:41,58,50.1001,-91.917,-16.600000000000023,-16.600000000000023,58
1214026,Sabang,12,ID,2021-02-08 00:30:56,78,5.8933,95.3214,81.80599999999998,81.80599999999998,78
2514301,Mahon,0,ES,2021-02-08 00:27:12,71,39.8885,4.2658,49.99999999999994,49.99999999999994,71
3873145,Río Bueno,0,CL,2021-02-08 00:30:58,44,-40.3167,-72.9667,78.80000000000001,78.80000000000001,44
2735083,Rio Tinto,40,PT,2021-02-08 00:30:59,88,41.1826,-8.5581,48.99199999999996,55.39999999999992,88
4513583,Hamilton,20,US,2021-02-08 00:29:22,42,39.1834,-84.5333,15.99799999999999,19.994000000000028,42
1253237,Verāval,0,IN,2021-02-08 00:31:02,32,20.9,70.3667,68.52199999999999,68.52199999999999,32
3664525,Codajás,91,BR,2021-02-08 00:31:03,93,-3.8367,-62.0569,76.02800000000008,76.02800000000008,93
898905,Sesheke,93,ZM,2021-02-08 00:31:05,95,-17.4759,24.2968,67.01000000000005,67.01000000000005,95
1502073,Krasnosel'kup,100,RU,2021-02-08 00:31:06,98,65.7,82.4667,21.379999999999995,21.379999999999995,98
2082539,Merauke,43,ID,2021-02-08 00:31:07,73,-8.4667,140.3333,84.88399999999996,84.88399999999996,73
2186377,Murchison,93,NZ,2021-02-08 00:31:08,44,-41.8,172.3333,73.32800000000003,73.32800000000003,44
2641519,Newtownards,90,GB,2021-02-08 00:31:11,69,54.5924,-5.6909,35.00599999999997,35.599999999999966,69
517767,Novoukrainskoye,100,RU,2021-02-08 00:31:12,98,45.3783,40.5297,25.736000000000047,25.736000000000047,98
5856516,‘Āhuimanu,40,US,2021-02-08 00:31:13,50,21.4447,-157.8378,73.99400000000009,78.80000000000001,50
6172009,Unity,25,CA,2021-02-08 00:31:15,84,52.4501,-109.1682,-29.524,-29.524,84
2520413,Campo de Criptana,100,ES,2021-02-08 00:31:16,87,39.4046,-3.1249,44.23999999999995,44.23999999999995,87
3445026,Vila Velha,90,BR,2021-02-08 00:26:59,100,-20.3297,-40.2925,69.80000000000001,69.99799999999999,100
499987,Rybnaya Sloboda,75,RU,2021-02-08 00:31:18,71,55.4613,50.1409,-7.600000000000023,-7.600000000000023,71
3530582,Ciudad Valles,2,MX,2021-02-08 00:30:53,68,21.9833,-99.0167,69.07999999999998,69.07999999999998,68
2093967,Kimbe,28,PG,2021-02-08 00:31:21,69,-5.5502,150.1429,85.65799999999996,85.65799999999996,69
2644605,Lerwick,96,GB,2021-02-08 00:31:22,86,60.1545,-1.1494,32.61200000000002,32.61200000000002,86
463355,Zheleznodorozhnyy,40,RU,2021-02-08 00:31:23,72,55.7503,38.0042,3.199999999999932,4.999999999999943,72
3992405,Pitiquito,24,MX,2021-02-08 00:28:30,15,30.7,-112.0833,73.99400000000009,73.99400000000009,15
1862352,Hitoyoshi,0,JP,2021-02-08 00:31:26,66,32.2167,130.75,46.00400000000002,49.99999999999994,66
2396853,Omboué,100,GA,2021-02-08 00:31:27,85,-1.5746,9.2618,78.85399999999998,78.85399999999998,85
921786,Mitsamiouli,100,KM,2021-02-08 00:31:28,79,-11.3847,43.2844,82.43599999999998,82.43599999999998,79
2417795,Mandiana,41,GN,2021-02-08 00:31:30,22,10.6333,-8.6833,73.47200000000004,73.47200000000004,22
218253,Bondo,100,CD,2021-02-08 00:31:31,31,3.8146,23.6866,64.07600000000008,64.07600000000008,31
3461888,Guarapari,90,BR,2021-02-08 00:31:32,100,-20.6667,-40.4975,69.80000000000001,69.99799999999999,100
3467609,Cananéia,0,BR,2021-02-08 00:31:33,70,-25.0147,-47.9267,72.24799999999999,72.24799999999999,70
3450083,Santa Maria,0,BR,2021-02-08 00:31:35,83,-29.6842,-53.8069,73.39999999999992,73.39999999999992,83
3361142,Springbok,0,ZA,2021-02-08 00:31:36,43,-29.6643,17.8865,57.97399999999999,57.97399999999999,43
1715335,Davila,40,PH,2021-02-08 00:31:37,94,18.4726,120.5763,75.19999999999999,75.19999999999999,94
2063030,Port Pirie,0,AU,2021-02-08 00:31:38,56,-33.1833,138.0167,71.59999999999997,71.59999999999997,56
3533462,Acapulco de Juárez,1,MX,2021-02-08 00:31:40,74,16.8634,-99.8901,82.39999999999992,82.39999999999992,74
2063039,Port Keats,100,AU,2021-02-08 00:31:41,78,-14.25,129.55,81.98600000000005,81.98600000000005,78
1685422,Sulangan,100,PH,2021-02-08 00:31:42,85,11.1373,123.7228,79.55599999999998,79.55599999999998,85
1061605,Manakara,100,MG,2021-02-08 00:31:43,90,-22.1333,48.0167,77.18,77.18,90
6690296,Saint-Joseph,90,RE,2021-02-08 00:31:45,61,-21.3667,55.6167,73.00399999999996,80.59999999999997,61
515966,Oksovskiy,75,RU,2021-02-08 00:31:46,88,62.6062,39.8984,-18.903999999999996,-18.903999999999996,88
5855051,‘Ewa Beach,20,US,2021-02-08 00:31:47,44,21.3156,-158.0072,73.39999999999992,78.80000000000001,44
5972291,Havre-St-Pierre,75,CA,2021-02-08 00:31:48,79,50.2334,-63.5986,17.599999999999966,17.599999999999966,79
779622,Havøysund,90,NO,2021-02-08 00:31:50,86,70.9963,24.6622,22.999999999999943,22.999999999999943,86
3517970,Pochutla,40,MX,2021-02-08 00:31:51,69,15.7432,-96.4661,80.99600000000004,82.39999999999992,69
3430105,Paso de Patria,0,AR,2021-02-08 00:31:52,69,-27.2454,-58.5454,75.9919999999999,78.00799999999998,69
2108502,Honiara,0,SB,2021-02-08 00:31:35,67,-9.4333,159.95,86.63000000000005,86.63000000000005,67
2370473,Quebo,0,GW,2021-02-08 00:31:55,67,11.3333,-14.9333,67.262,67.262,67
2283016,Odienné,9,CI,2021-02-08 00:31:56,24,9.51,-7.5692,74.26399999999995,74.26399999999995,24
934862,Sidvokodvo,38,SZ,2021-02-08 00:31:57,89,-26.6282,31.4202,70.16000000000003,70.16000000000003,89
3372472,Vila Franca do Campo,40,PT,2021-02-08 00:31:58,82,37.7167,-25.4333,55.39999999999992,57.00200000000001,82
2068655,Katherine,75,AU,2021-02-08 00:32:00,83,-14.4667,132.2667,80.59999999999997,80.59999999999997,83
5859699,College,20,US,2021-02-08 00:30:11,70,64.8569,-147.8028,-9.399999999999977,-2.9920000000000186,70
3573374,The Valley,40,AI,2021-02-08 00:32:02,73,18.217,-63.0578,78.00799999999998,78.80000000000001,73
1060673,Manjakandriana,75,MG,2021-02-08 00:32:03,88,-18.9167,47.8,66.19999999999999,66.19999999999999,88
3439525,Young,0,UY,2021-02-08 00:32:05,60,-32.6833,-57.6333,80.00600000000003,80.00600000000003,60
778707,Mehamn,100,NO,2021-02-08 00:29:06,92,71.0357,27.8492,23.233999999999924,23.233999999999924,92
3698359,Chicama,100,PE,2021-02-08 00:32:07,66,-7.8447,-79.1469,73.99400000000009,73.99400000000009,66
2064735,Nhulunbuy,75,AU,2021-02-08 00:30:08,79,-12.2333,136.7667,84.19999999999999,84.19999999999999,79
2191562,Dunedin,92,NZ,2021-02-08 00:31:49,88,-45.8742,170.5036,60.99799999999999,60.99799999999999,88
1526038,Atbasar,100,KZ,2021-02-08 00:32:12,96,51.8,68.3333,13.153999999999996,13.153999999999996,96
3622036,Roxana,40,CR,2021-02-08 00:32:13,68,10.2753,-83.7513,69.00799999999998,73.39999999999992,68
487928,Novikovo,100,RU,2021-02-08 00:32:15,92,51.1537,37.8879,4.2620000000000005,4.2620000000000005,92
3461370,Imbituba,40,BR,2021-02-08 00:28:32,73,-28.24,-48.6703,75.19999999999999,75.19999999999999,73
5129852,Oneonta,100,US,2021-02-08 00:28:25,75,42.4529,-75.0638,17.005999999999972,21.00200000000001,75
2012956,Yerbogachën,100,RU,2021-02-08 00:32:18,98,61.2767,108.0108,23.25200000000001,23.25200000000001,98
2636790,Stornoway,75,GB,2021-02-08 00:32:20,69,58.2093,-6.3865,33.99799999999999,35.599999999999966,69
153759,Misungwi,100,TZ,2021-02-08 00:32:21,67,-2.85,33.0833,69.40400000000005,69.40400000000005,67
6104820,Pinawa,96,CA,2021-02-08 00:32:22,86,50.1489,-95.8811,-26.644000000000005,-26.644000000000005,86
4033514,Teavaro,20,PF,2021-02-08 00:32:23,58,-17.5,-149.7667,85.99999999999994,87.00799999999998,58
1737486,Bintulu,40,MY,2021-02-08 00:32:26,100,3.1667,113.0333,75.00200000000001,75.19999999999999,100
3386931,Tamandaré,100,BR,2021-02-08 00:32:27,80,-8.7597,-35.1047,78.09800000000001,78.09800000000001,80
2015686,Talakan,20,RU,2021-02-08 00:32:28,85,50.3167,130.3667,-12.586000000000013,-12.586000000000013,85
70979,Sayyan,35,YE,2021-02-08 00:31:19,61,15.1718,44.3244,44.74400000000003,44.74400000000003,61
4673482,Benbrook,1,US,2021-02-08 00:32:31,44,32.6732,-97.4606,53.99600000000004,57.991999999999905,44
1489401,Toora-Khem,100,RU,2021-02-08 00:32:32,91,52.4675,96.11,4.586000000000013,4.586000000000013,91
1786657,Yinchuan,100,CN,2021-02-08 00:32:33,79,38.4681,106.2731,31.02800000000002,31.02800000000002,79
244878,Biltine,85,TD,2021-02-08 00:32:35,24,14.5333,20.9167,65.89400000000006,65.89400000000006,24
965289,Polokwane,89,ZA,2021-02-08 00:32:02,88,-23.9045,29.4688,66.19999999999999,66.19999999999999,88
3447005,Tambaú,0,BR,2021-02-08 00:32:37,68,-21.705,-47.2744,73.39999999999992,73.39999999999992,68
2132606,Samarai,91,PG,2021-02-08 00:28:01,66,-10.6167,150.6667,85.82,85.82,66
107304,Buraidah,40,SA,2021-02-08 00:32:40,100,26.326,43.975,51.799999999999955,51.799999999999955,100
2063042,Port Hedland,23,AU,2021-02-08 00:32:41,69,-20.3167,118.5667,82.39999999999992,82.39999999999992,69
3355672,Lüderitz,0,NA,2021-02-08 00:32:42,55,-26.6481,15.1594,67.02800000000008,67.02800000000008,55
2152659,Port Macquarie,75,AU,2021-02-08 00:30:41,88,-31.4333,152.9167,71.59999999999997,76.99999999999994,88
1649150,Bengkulu,99,ID,2021-02-08 00:32:46,73,-3.8004,102.2655,78.656,78.656,73
3465409,Correia Pinto,0,BR,2021-02-08 00:32:47,79,-27.5847,-50.3611,60.06200000000007,60.06200000000007,79
3462315,Governador Valadares,100,BR,2021-02-08 00:31:46,94,-18.8511,-41.9494,70.68199999999996,70.68199999999996,94
463655,Zenzeli,100,RU,2021-02-08 00:32:50,78,45.9241,47.0474,23.107999999999947,23.107999999999947,78
1053384,Toamasina,20,MG,2021-02-08 00:32:51,94,-18.1667,49.3833,75.19999999999999,75.19999999999999,94
3587498,Acajutla,0,SV,2021-02-08 00:32:52,76,13.5928,-89.8275,77.93599999999998,77.93599999999998,76
3407903,Almeirim,61,BR,2021-02-08 00:32:54,80,-1.5233,-52.5817,78.09800000000001,78.09800000000001,80
4231997,Avera,1,US,2021-02-08 00:32:55,78,33.194,-82.5271,40.99999999999994,42.799999999999955,78
1516438,Zyryanovsk,100,KZ,2021-02-08 00:32:56,97,49.7386,84.2719,24.620000000000005,24.620000000000005,97
2206874,Waipawa,75,NZ,2021-02-08 00:32:57,64,-41.4122,175.5153,67.99999999999994,71.59999999999997,64
503581,Pyaozerskiy,3,RU,2021-02-08 00:32:59,93,65.8333,31.1667,8.041999999999973,8.041999999999973,93
3995005,Veinticinco de Diciembre,98,MX,2021-02-08 00:33:00,25,25.2602,-104.0519,63.01399999999995,63.01399999999995,25
364071,Wad Rāwah,0,SD,2021-02-08 00:33:01,31,15.1603,33.1397,62.36599999999993,62.36599999999993,31
2018436,Onokhoy,82,RU,2021-02-08 00:33:02,77,51.932,108.0747,-13.0,-13.0,77
5959803,Capreol,40,CA,2021-02-08 00:30:44,61,46.706,-80.9225,3.991999999999962,6.007999999999981,61
3395458,Maragogi,100,BR,2021-02-08 00:33:05,81,-9.0122,-35.2225,78.62000000000006,78.62000000000006,81
6539617,Sondrio,100,IT,2021-02-08 00:33:06,96,46.169,9.8692,33.00799999999998,40.99999999999994,96
1624041,Ternate,98,ID,2021-02-08 00:33:07,76,0.8,127.4,82.79599999999999,82.79599999999999,76
2654970,Brae,91,GB,2021-02-08 00:33:09,89,60.3964,-1.353,31.549999999999955,31.549999999999955,89
5105640,Union,90,US,2021-02-08 00:33:10,93,40.6334,-74.2663,30.00200000000001,33.00799999999998,93
3691954,Sechura,95,PE,2021-02-08 00:33:11,60,-5.5569,-80.8222,79.142,79.142,60
2146219,Hervey Bay,100,AU,2021-02-08 00:33:12,76,-25.2986,152.8535,84.00200000000001,84.00200000000001,76
6255012,Flinders,95,AU,2021-02-08 00:33:14,79,-34.5833,150.8552,69.99799999999999,69.99799999999999,79
3419842,Sisimiut,7,GL,2021-02-08 00:33:15,79,66.9395,-53.6735,23.82800000000003,23.82800000000003,79
95788,Hīt,0,IQ,2021-02-08 00:33:16,64,33.6416,42.8251,56.21000000000009,56.21000000000009,64
1684245,Tagusao,97,PH,2021-02-08 00:33:17,78,9.1924,117.8141,81.51800000000009,81.51800000000009,78
3723593,Jérémie,27,HT,2021-02-08 00:33:19,71,18.65,-74.1167,76.98200000000003,76.98200000000003,71
5975004,High Level,20,CA,2021-02-08 00:33:20,63,58.5169,-117.136,-16.600000000000023,-16.600000000000023,63
2063036,Port Lincoln,58,AU,2021-02-08 00:33:21,71,-34.7333,135.8667,64.21999999999997,64.21999999999997,71
238566,Ippy,90,CF,2021-02-08 00:33:22,24,6.2679,21.2247,66.86599999999993,66.86599999999993,24
